{"name":"Bytków Otodm","centerCoordinates":{"lat":50.2985443,"lng":19.0135312},"locations":[{"name":"Mieszkanie","coordinates":{"lat":50.2985443,"lng":19.0135312}},{"name":"Kaufland Siemianowice Śląskie-4.2⭐️","coordinates":{"lat":50.3034815,"lng":19.012936}},{"name":"Lidl-4.3⭐️","coordinates":{"lat":50.30082669999999,"lng":19.0022263}},{"name":"Biedronka-3.9⭐️","coordinates":{"lat":50.3013171,"lng":19.0314612}},{"name":"Lidl-4.3⭐️","coordinates":{"lat":50.30420429999999,"lng":19.029909}},{"name":"Carrefour Market-4.1⭐️","coordinates":{"lat":50.3009985,"lng":19.0009175}},{"name":"Park Bytkowski w Siemianowicach Śląskich-4.5⭐️","coordinates":{"lat":50.3048793,"lng":18.9997941}},{"name":"Park Miejski w Siemianowicach Śląskich-4.4⭐️","coordinates":{"lat":50.3084915,"lng":19.0291248}},{"name":"Park Wełnowiecki w Katowicach-4.5⭐️","coordinates":{"lat":50.2787599,"lng":19.0282729}},{"name":"Siłownia Na Wolnym Powietrzu Przy Skateparku-5⭐️","coordinates":{"lat":50.2986714,"lng":19.0186283}},{"name":"Rower Miejski Tuwim-5⭐️","coordinates":{"lat":50.2988729,"lng":19.019409}},{"name":"Miejskie Towarzystwo Krzewienia Kultury Fizycznej.-⭐️","coordinates":{"lat":50.3000337,"lng":19.0066029}},{"name":"Kingdom Hall of Jehovahs Witnesses-4.6⭐️","coordinates":{"lat":50.2997223,"lng":19.0152221}},{"name":"Parafia św. Antoniego z Padwy w Siemianowicach Śląskich-4.4⭐️","coordinates":{"lat":50.30134779999999,"lng":19.0244566}},{"name":"Rzymskokatolicka Parafia Ducha Świętego w Siemianowicach Śląskich-4.6⭐️","coordinates":{"lat":50.30560310000001,"lng":19.0014902}},{"name":"Siemianowice Korfantego-3.7⭐️","coordinates":{"lat":50.302012,"lng":19.013702}},{"name":"Siemianowice Korfantego-⭐️","coordinates":{"lat":50.3020215,"lng":19.0124013}},{"name":"Siemianowice Korfantego-5⭐️","coordinates":{"lat":50.302067,"lng":19.011331}},{"name":"Siemianowice Kopalniana-⭐️","coordinates":{"lat":50.301587,"lng":19.017993}},{"name":"Siemianowice Kopalniana-⭐️","coordinates":{"lat":50.30163169999999,"lng":19.018144}}]}
