{"name":"Rondo Ceglana","centerCoordinates":{"lat":50.2438495,"lng":19.0129724},"locations":[{"name":"Mieszkanie","coordinates":{"lat":50.2438495,"lng":19.0129724}},{"name":"Moje Auchan-3.7⭐️","coordinates":{"lat":50.2530436,"lng":19.0194091}},{"name":"Lidl-4.3⭐️","coordinates":{"lat":50.2369563,"lng":19.0037953}},{"name":"Kaufland Katowice-4.5⭐️","coordinates":{"lat":50.2422067,"lng":18.996547}},{"name":"Carrefour Express-4.5⭐️","coordinates":{"lat":50.2482431,"lng":19.0320119}},{"name":"TMAC Sp.z o.o.sp.k SKLEP TURECKI-⭐️","coordinates":{"lat":50.2561892,"lng":19.0206685}},{"name":"Park-4.7⭐️","coordinates":{"lat":50.2557431,"lng":19.0146782}},{"name":"Kosciuszko Park-4.6⭐️","coordinates":{"lat":50.2459046,"lng":19.0046438}},{"name":"Park za Lotniskiem. Rolkostrada.-4.8⭐️","coordinates":{"lat":50.2338658,"lng":19.0267264}},{"name":"Fitness Fun - Health and Physical Recreation-4.5⭐️","coordinates":{"lat":50.2428161,"lng":19.0111186}},{"name":"Ewo Gim - Rewolucja w spojrzeniu na trening gimnastyczny-4.6⭐️","coordinates":{"lat":50.2440586,"lng":19.0097675}},{"name":"EMS 20 studio - trening premium Brynów-5⭐️","coordinates":{"lat":50.2423969,"lng":19.0082199}},{"name":"Church of Sts. Michael the Archangel-4.7⭐️","coordinates":{"lat":50.2409663,"lng":19.0048245}},{"name":"Kościół Wolnych Chrześcijan-4.4⭐️","coordinates":{"lat":50.2501482,"lng":19.0120554}},{"name":"Roman Catholic Parish of St. Michael the Archangel-4.5⭐️","coordinates":{"lat":50.2365352,"lng":19.0071668}},{"name":"Katowice Ceglana Szpital Kliniczny-4⭐️","coordinates":{"lat":50.24345809999999,"lng":19.0151746}},{"name":"Katowice Kościuszki Szpital-5⭐️","coordinates":{"lat":50.246125,"lng":19.010279}},{"name":"Katowice Kościuszki Szpital-5⭐️","coordinates":{"lat":50.24621,"lng":19.01017800000001}},{"name":"Katowice Meteorologów-5⭐️","coordinates":{"lat":50.24148299999999,"lng":19.01732299999999}},{"name":"Katowice Meteorologów-⭐️","coordinates":{"lat":50.241709,"lng":19.0178007}}]}
