{"name":"Modena Ceglana","centerCoordinates":{"lat":50.2444752,"lng":19.0113246},"locations":[{"name":"Mieszkanie","coordinates":{"lat":50.2444752,"lng":19.0113246}},{"name":"Moje Auchan-3.7⭐️","coordinates":{"lat":50.2530436,"lng":19.0194091}},{"name":"Lidl-4.3⭐️","coordinates":{"lat":50.2369563,"lng":19.0037953}},{"name":"Kaufland Katowice-4.5⭐️","coordinates":{"lat":50.2422067,"lng":18.996547}},{"name":"TMAC Sp.z o.o.sp.k SKLEP TURECKI-⭐️","coordinates":{"lat":50.2561892,"lng":19.0206685}},{"name":"-⭐️","coordinates":{"lat":0,"lng":0}},{"name":"Kosciuszko Park-4.6⭐️","coordinates":{"lat":50.2459046,"lng":19.0046438}},{"name":"Park-4.7⭐️","coordinates":{"lat":50.2557431,"lng":19.0146782}},{"name":"Park Powstańców Śląskich w Katowicach-4.4⭐️","coordinates":{"lat":50.26308520000001,"lng":19.0246742}},{"name":"Ewo Gim - Rewolucja w spojrzeniu na trening gimnastyczny-4.6⭐️","coordinates":{"lat":50.2440586,"lng":19.0097675}},{"name":"Fitness Fun - Health and Physical Recreation-4.5⭐️","coordinates":{"lat":50.2428161,"lng":19.0111186}},{"name":"EMS 20 studio - trening premium Brynów-5⭐️","coordinates":{"lat":50.2423969,"lng":19.0082199}},{"name":"Church of Sts. Michael the Archangel-4.7⭐️","coordinates":{"lat":50.2409663,"lng":19.0048245}},{"name":"Kościół Wolnych Chrześcijan-4.4⭐️","coordinates":{"lat":50.2501482,"lng":19.0120554}},{"name":"Roman Catholic Parish of St. Michael the Archangel-4.5⭐️","coordinates":{"lat":50.2365352,"lng":19.0071668}},{"name":"Katowice Kościuszki Szpital-5⭐️","coordinates":{"lat":50.246125,"lng":19.010279}},{"name":"Katowice Kościuszki Szpital-5⭐️","coordinates":{"lat":50.24621,"lng":19.01017800000001}},{"name":"Katowice Ceglana Szpital Kliniczny-4⭐️","coordinates":{"lat":50.24345809999999,"lng":19.0151746}},{"name":"Katowice Kościuszki Basen-⭐️","coordinates":{"lat":50.242738,"lng":19.007195}},{"name":"Katowice Kościuszki Basen-⭐️","coordinates":{"lat":50.242477,"lng":19.006841}}]}
