{"name":"Na Koszutce","centerCoordinates":{"lat":50.2627365,"lng":19.0212489},"locations":[{"name":"Mieszkanie","coordinates":{"lat":50.2627365,"lng":19.0212489}},{"name":"Biedronka-3.7⭐️","coordinates":{"lat":50.2620136,"lng":19.0260513}},{"name":"Netto-4⭐️","coordinates":{"lat":50.263726,"lng":19.0045847}},{"name":"ALDI-4.1⭐️","coordinates":{"lat":50.26214839999999,"lng":19.0189567}},{"name":"Stokrotka-3.9⭐️","coordinates":{"lat":50.2587874,"lng":19.01578}},{"name":"Biedronka-4.1⭐️","coordinates":{"lat":50.26288539999999,"lng":19.0108347}},{"name":"Park-4.7⭐️","coordinates":{"lat":50.2557431,"lng":19.0146782}},{"name":"Kosciuszko Park-4.6⭐️","coordinates":{"lat":50.2459046,"lng":19.0046438}},{"name":"Park Wełnowiecki w Katowicach-4.5⭐️","coordinates":{"lat":50.2787599,"lng":19.0282729}},{"name":"Joga Kundalini Katowice-5⭐️","coordinates":{"lat":50.2629744,"lng":19.0190617}},{"name":"Calypso Fitness Club-4.5⭐️","coordinates":{"lat":50.26182659999999,"lng":19.019183}},{"name":"Get Fit Fitness-4.7⭐️","coordinates":{"lat":50.2615558,"lng":19.0241811}},{"name":"II Zbór Kościoła Chrześcijan Baptystów „Opoka” w Katowicach-⭐️","coordinates":{"lat":50.2621213,"lng":19.0189562}},{"name":"Kościół Adwentystów Dnia Siódmego, Zbór Katowice-4.8⭐️","coordinates":{"lat":50.26129590000001,"lng":19.0172857}},{"name":"The Church of Jesus Christ of Latter-Day Saints-4⭐️","coordinates":{"lat":50.2592663,"lng":19.0229708}},{"name":"Katowice Aleja Korfantego-4.5⭐️","coordinates":{"lat":50.2621005,"lng":19.0230244}},{"name":"Katowice Aleja Korfantego-4⭐️","coordinates":{"lat":50.2613803,"lng":19.0222606}},{"name":"Katowice Piotra Skargi-4.5⭐️","coordinates":{"lat":50.2614372,"lng":19.0197663}},{"name":"Katowice Rynek-⭐️","coordinates":{"lat":50.261,"lng":19.02165}},{"name":"Katowice 1 Piotra Skargi Street-4⭐️","coordinates":{"lat":50.26188,"lng":19.01866}}]}
