{"name":"Murapol Osiedle Wolka","centerCoordinates":{"lat":50.2862446,"lng":18.9349266},"locations":[{"name":"Mieszkanie","coordinates":{"lat":50.2862446,"lng":18.9349266}},{"name":"Aldi-4.3⭐️","coordinates":{"lat":50.28401950000001,"lng":18.9395154}},{"name":"Biedronka-3.9⭐️","coordinates":{"lat":50.2970892,"lng":18.933804}},{"name":"Biedronka-4.1⭐️","coordinates":{"lat":50.28699289999999,"lng":18.9242299}},{"name":"Lidl-4.3⭐️","coordinates":{"lat":50.2944918,"lng":18.9417843}},{"name":"Lidl-4.2⭐️","coordinates":{"lat":50.2763521,"lng":18.9408784}},{"name":"City Park Skalka-4.5⭐️","coordinates":{"lat":50.2988606,"lng":18.9256536}},{"name":"Park miejski Podgórze-4.2⭐️","coordinates":{"lat":50.2813026,"lng":18.9141487}},{"name":"Park pod kasztanami-4.4⭐️","coordinates":{"lat":50.2920753,"lng":18.9555993}},{"name":"garaże-⭐️","coordinates":{"lat":50.29035289999999,"lng":18.9282983}},{"name":"MMA & Performance Alan Langer-5⭐️","coordinates":{"lat":50.2883473,"lng":18.9227924}},{"name":"tatusianki kołysanki-⭐️","coordinates":{"lat":50.29098889999999,"lng":18.9451625}},{"name":"Kościół pw. Ducha Świętego-4.3⭐️","coordinates":{"lat":50.2862549,"lng":18.9420872}},{"name":"Free Christians Church-5⭐️","coordinates":{"lat":50.2867779,"lng":18.9445215}},{"name":"Brauner Zakład Pogrzebowy-4.8⭐️","coordinates":{"lat":50.2908149,"lng":18.9421945}},{"name":"Świętochłowice Gazownia-⭐️","coordinates":{"lat":50.28474,"lng":18.93554}},{"name":"Świętochłowice Gazownia-3⭐️","coordinates":{"lat":50.28468799999999,"lng":18.933815}},{"name":"Świętochłowice Gazownia-1⭐️","coordinates":{"lat":50.284455,"lng":18.934373}},{"name":"Świętochłowice Gazownia-⭐️","coordinates":{"lat":50.28429,"lng":18.93505}},{"name":"Chorzów Bałtycka-5⭐️","coordinates":{"lat":50.287139,"lng":18.939415}}]}
