{"name":"Inspire","centerCoordinates":{"lat":50.252676,"lng":19.041196},"locations":[{"name":"Mieszkanie","coordinates":{"lat":50.252676,"lng":19.041196}},{"name":"Lidl-4.3⭐️","coordinates":{"lat":50.2468849,"lng":19.0392136}},{"name":"Pro Patria-5⭐️","coordinates":{"lat":50.25446789999999,"lng":19.033271}},{"name":"ALDI-4.4⭐️","coordinates":{"lat":50.25879139999999,"lng":19.0427226}},{"name":"Lidl-4.3⭐️","coordinates":{"lat":50.25918430000001,"lng":19.0370032}},{"name":"Biedronka-3.7⭐️","coordinates":{"lat":50.2620136,"lng":19.0260513}},{"name":"Kosciuszko Park-4.6⭐️","coordinates":{"lat":50.2459046,"lng":19.0046438}},{"name":"Park-4.7⭐️","coordinates":{"lat":50.2557431,"lng":19.0146782}},{"name":"Park Wełnowiecki w Katowicach-4.5⭐️","coordinates":{"lat":50.2787599,"lng":19.0282729}},{"name":"Bamboo Studio-⭐️","coordinates":{"lat":50.2527092,"lng":19.041191}},{"name":"Just GYM-4.7⭐️","coordinates":{"lat":50.2538133,"lng":19.0387429}},{"name":"Krav Maga Katowice - TRIBE SQUAD-5⭐️","coordinates":{"lat":50.25024630000001,"lng":19.0367477}},{"name":"Zgromadzenie Zakonne Sióstr Maryi Niepokalanej-⭐️","coordinates":{"lat":50.255056,"lng":19.034819}},{"name":"Church of the Assumption of the Blessed Virgin Mary-4.4⭐️","coordinates":{"lat":50.2548596,"lng":19.034633}},{"name":"Parafia Opatrzności Bożej w Katowicach Zawodziu-4.6⭐️","coordinates":{"lat":50.25817050000001,"lng":19.0453885}},{"name":"Katowice Krasińskiego-4⭐️","coordinates":{"lat":50.25361789999999,"lng":19.0346636}},{"name":"Katowice Porcelanowa-⭐️","coordinates":{"lat":50.25089,"lng":19.04746}},{"name":"Katowice Green Park-⭐️","coordinates":{"lat":50.25471,"lng":19.047476}},{"name":"Porcelanowa-⭐️","coordinates":{"lat":50.2518,"lng":19.04863}},{"name":"Osiedle Paderewskiego Biblioteka Śląska-4.8⭐️","coordinates":{"lat":50.25095,"lng":19.03327}}]}
