{"name":"Bytkowska 2.0","centerCoordinates":{"lat":50.2883152,"lng":19.0062741},"locations":[{"name":"Mieszkanie","coordinates":{"lat":50.2883152,"lng":19.0062741}},{"name":"Lidl-4.3⭐️","coordinates":{"lat":50.30082669999999,"lng":19.0022263}},{"name":"Biedronka-3.8⭐️","coordinates":{"lat":50.28385219999999,"lng":19.0174791}},{"name":"Simply Market Katowice-4.5⭐️","coordinates":{"lat":50.2789228,"lng":19.0125347}},{"name":"Carrefour Market-4⭐️","coordinates":{"lat":50.3009985,"lng":19.0009175}},{"name":"Biedronka-4.1⭐️","coordinates":{"lat":50.29801619999999,"lng":18.99595159999999}},{"name":"Park Miejski w Siemianowicach Śląskich-4.4⭐️","coordinates":{"lat":50.3084915,"lng":19.0291248}},{"name":"Park Bytkowski w Siemianowicach Śląskich-4.5⭐️","coordinates":{"lat":50.3048793,"lng":18.9997941}},{"name":"Park Wełnowiecki w Katowicach-4.5⭐️","coordinates":{"lat":50.2787599,"lng":19.0282729}},{"name":"Carramba Katowice-4.5⭐️","coordinates":{"lat":50.2869499,"lng":19.0136435}},{"name":"Ośrodek Sportowy-1⭐️","coordinates":{"lat":50.2869273,"lng":19.0137551}},{"name":"Silownia - Gimnastyka Na Wolnyn Powietrzu-5⭐️","coordinates":{"lat":50.293221,"lng":19.01618599999999}},{"name":"Archidiecezja Katowicka_im Wiktoria Skworca-3.3⭐️","coordinates":{"lat":50.28597339999999,"lng":19.0091014}},{"name":"Kościół Seminaryjny Wniebowzięcia Nmp I Św. Józefa Oblubieńca-⭐️","coordinates":{"lat":50.285782,"lng":19.0147177}},{"name":"Kościół Bożego Ciała-⭐️","coordinates":{"lat":50.285782,"lng":19.0147177}},{"name":"Kolonia Agnieszki Promienna-4⭐️","coordinates":{"lat":50.287523,"lng":19.007388}},{"name":"Kolonia Agnieszki Promienna-⭐️","coordinates":{"lat":50.28743360000001,"lng":19.0074635}},{"name":"Kolonia Agnieszki Promienna-2.5⭐️","coordinates":{"lat":50.287344,"lng":19.007539}},{"name":"Kolonia Agnieszki Bytomska-⭐️","coordinates":{"lat":50.286961,"lng":19.006605}},{"name":"Kolonia Agnieszki Bytomska-⭐️","coordinates":{"lat":50.2862854,"lng":19.0067714}}]}
