{"name":"Na Koszutce","centerCoordinates":{"lat":50.27572439999999,"lng":19.0227962},"locations":[{"name":"Mieszkanie","coordinates":{"lat":50.27572439999999,"lng":19.0227962}},{"name":"Lidl-4.3⭐️","coordinates":{"lat":50.27642859999999,"lng":19.018226}},{"name":"Biedronka-3.9⭐️","coordinates":{"lat":50.2707588,"lng":19.041455}},{"name":"Biedronka-3.8⭐️","coordinates":{"lat":50.28385219999999,"lng":19.0174791}},{"name":"Simply Market Katowice-4.5⭐️","coordinates":{"lat":50.2789228,"lng":19.0125347}},{"name":"Aldi-4.3⭐️","coordinates":{"lat":50.269282,"lng":19.0330823}},{"name":"Park-4.7⭐️","coordinates":{"lat":50.2557431,"lng":19.0146782}},{"name":"Park Wełnowiecki w Katowicach-4.5⭐️","coordinates":{"lat":50.2787599,"lng":19.0282729}},{"name":"Park Hutnik w Siemianowicach Śląskich-4.3⭐️","coordinates":{"lat":50.30144019999999,"lng":19.0302788}},{"name":"Calypso Fitness Katowice Korfantego-4.4⭐️","coordinates":{"lat":50.2791779,"lng":19.0204544}},{"name":"System595-4.9⭐️","coordinates":{"lat":50.2714481,"lng":19.0243377}},{"name":"Hala Sportowa Piętka-4.7⭐️","coordinates":{"lat":50.2809466,"lng":19.0252542}},{"name":"Kościół NMP Wspomożenia Wiernych w Katowicach-4.3⭐️","coordinates":{"lat":50.27839509999999,"lng":19.021281}},{"name":"Misjonarze Oblaci Maryji Niepokalanej-4.6⭐️","coordinates":{"lat":50.27157589999999,"lng":19.0214703}},{"name":"Parafia św. Józefa Robotnika w Katowicach-4.4⭐️","coordinates":{"lat":50.28061169999999,"lng":19.0135132}},{"name":"Koszutka Iłłakowiczówny-⭐️","coordinates":{"lat":50.274904,"lng":19.02212099999999}},{"name":"Koszutka Iłłakowiczówny-2⭐️","coordinates":{"lat":50.27471499999999,"lng":19.022199}},{"name":"Koszutka Jesionowa-5⭐️","coordinates":{"lat":50.27470599999999,"lng":19.023765}},{"name":"Koszutka Jesionowa-⭐️","coordinates":{"lat":50.2744398,"lng":19.0239202}},{"name":"Koszutka Słoneczna-3.5⭐️","coordinates":{"lat":50.27405,"lng":19.023862}}]}
