{"name":"Nowy Sikornik","centerCoordinates":{"lat":50.2742791,"lng":18.6538558},"locations":[{"name":"Mieszkanie","coordinates":{"lat":50.2742791,"lng":18.6538558}},{"name":"E.Leclerc-4⭐️","coordinates":{"lat":50.2760049,"lng":18.6605573}},{"name":"Biedronka-3.6⭐️","coordinates":{"lat":50.27646459999999,"lng":18.6596075}},{"name":"POLOmarket-3.8⭐️","coordinates":{"lat":50.2813414,"lng":18.6696164}},{"name":"Biedronka-3.8⭐️","coordinates":{"lat":50.2815072,"lng":18.670273}},{"name":"Targowisko "Sikornik"-4.9⭐️","coordinates":{"lat":50.2775201,"lng":18.6539072}},{"name":"Park Chrobrego w Gliwicach-4.7⭐️","coordinates":{"lat":50.2888762,"lng":18.6829424}},{"name":"Park przy Ogródkach-4⭐️","coordinates":{"lat":50.3012445,"lng":18.6627848}},{"name":"Park na Słowackiego-4.4⭐️","coordinates":{"lat":50.2888616,"lng":18.643935}},{"name":"Odnowa. Fitness club-3.8⭐️","coordinates":{"lat":50.2797031,"lng":18.6551553}},{"name":"Old Hangar Fitness & Wellness Club-4.6⭐️","coordinates":{"lat":50.274444,"lng":18.6660961}},{"name":"Siłownia na wolnym powietrzu-4⭐️","coordinates":{"lat":50.2774527,"lng":18.6652203}},{"name":"Holy Mother of the Church-4.2⭐️","coordinates":{"lat":50.2768211,"lng":18.6520254}},{"name":"Kościół rzymskokatolicki pw. Matki Bożej Częstochowskiej-4.6⭐️","coordinates":{"lat":50.27587949999999,"lng":18.66915819999999}},{"name":"Kościół rzymskokatolicki pw. św. Antoniego w Gliwicach-4.4⭐️","coordinates":{"lat":50.28632479999999,"lng":18.6435781}},{"name":"Sikornik Wilgi-5⭐️","coordinates":{"lat":50.27332,"lng":18.65224}},{"name":"Sikornik Wilgi-⭐️","coordinates":{"lat":50.27329,"lng":18.65075}},{"name":"Sikornik Osiedle-4.7⭐️","coordinates":{"lat":50.27822430000001,"lng":18.6576879}},{"name":"Sikornik Osiedle-⭐️","coordinates":{"lat":50.27861,"lng":18.657988}},{"name":"Gliwice Żurawia-⭐️","coordinates":{"lat":50.2775105,"lng":18.66143929999999}}]}
