{"name":"","centerCoordinates":{"lat":50.2940091,0,"lng":18.6449706,0},"locations":[{"name":"Mieszkanie","coordinates":{"lat":50.2940091,0,"lng":18.6449706,0}},{"name":"Biedronka-3.6⭐️","coordinates":{"lat":50.2967513,0,"lng":18.6582533,0}},{"name":"Biedronka-3.8⭐️","coordinates":{"lat":50.2996799,0,"lng":18.6448459,0}},{"name":"Biedronka-4.1⭐️","coordinates":{"lat":50.3003191,0,"lng":18.6486884,0}},{"name":"Carrefour-4.1⭐️","coordinates":{"lat":50.3073431,0,"lng":18.6452659,0}},{"name":"Lidl-4.3⭐️","coordinates":{"lat":50.3033697,0,"lng":18.6354112,0}},{"name":"Park im. Fryderyka Chopina w Gliwicach-4.7⭐️","coordinates":{"lat":50.3003733,0,"lng":18.669988,0}},{"name":"Park Chrobrego w Gliwicach-4.7⭐️","coordinates":{"lat":50.2888762,0,"lng":18.6829424,0}},{"name":"Park przy Ogródkach-4⭐️","coordinates":{"lat":50.3012445,0,"lng":18.6627848,0}},{"name":"Siłownia na świeżym powietrzu-5⭐️","coordinates":{"lat":50.2983824,0,"lng":18.6486211,0}},{"name":"Szkoła Jogi- Balasana Joga-5⭐️","coordinates":{"lat":50.2996597,0,"lng":18.6449964,0}},{"name":"Pracownia Dobrej Formy Magdalena Żelezik-5⭐️","coordinates":{"lat":50.3005386,0,"lng":18.6455417,0}},{"name":"FUNDACJA ESPORT.EDU.PL-⭐️","coordinates":{"lat":50.29502220000001,0,"lng":18.6520955,0}},{"name":"Church of the Assumption of Mary in Gliwice-4.6⭐️","coordinates":{"lat":50.3001951,0,"lng":18.6493685,0}},{"name":"Kościół rzymskokatolicki pw. św. Antoniego w Gliwicach-4.4⭐️","coordinates":{"lat":50.28632479999999,0,"lng":18.6435781,0}},{"name":"Gliwice Puszkina-⭐️","coordinates":{"lat":50.29392799999999,0,"lng":18.64647,0}},{"name":"Gliwice Puszkina-⭐️","coordinates":{"lat":50.2939129,0,"lng":18.6467251,0}},{"name":"Gliwice Puszkina-5⭐️","coordinates":{"lat":50.293897,0,"lng":18.64698,0}},{"name":"Gliwice Sowińskiego-4⭐️","coordinates":{"lat":50.29319099999999,0,"lng":18.64272099999999,0}},{"name":"Gliwice Sowińskiego-⭐️","coordinates":{"lat":50.29291480000001,0,"lng":18.6424268,0}}]}
