{"name":"","centerCoordinates":{"lat":50.2940091,"lng":18.6449706},"locations":[{"name":"Mieszkanie","coordinates":{"lat":50.2940091,"lng":18.6449706}},{"name":"Biedronka-3.6⭐️","coordinates":{"lat":50.2967513,"lng":18.6582533}},{"name":"Biedronka-3.8⭐️","coordinates":{"lat":50.2996799,"lng":18.6448459}},{"name":"Biedronka-4.1⭐️","coordinates":{"lat":50.3003191,"lng":18.6486884}},{"name":"Carrefour-4.1⭐️","coordinates":{"lat":50.3073431,"lng":18.6452659}},{"name":"Lidl-4.3⭐️","coordinates":{"lat":50.3033697,"lng":18.6354112}},{"name":"Park im. Fryderyka Chopina w Gliwicach-4.7⭐️","coordinates":{"lat":50.3003733,"lng":18.669988}},{"name":"Park Chrobrego w Gliwicach-4.7⭐️","coordinates":{"lat":50.2888762,"lng":18.6829424}},{"name":"Park przy Ogródkach-4⭐️","coordinates":{"lat":50.3012445,"lng":18.6627848}},{"name":"Siłownia na świeżym powietrzu-5⭐️","coordinates":{"lat":50.2983824,"lng":18.6486211}},{"name":"Szkoła Jogi- Balasana Joga-5⭐️","coordinates":{"lat":50.2996597,"lng":18.6449964}},{"name":"Pracownia Dobrej Formy Magdalena Żelezik-5⭐️","coordinates":{"lat":50.3005386,"lng":18.6455417}},{"name":"FUNDACJA ESPORT.EDU.PL-⭐️","coordinates":{"lat":50.29502220000001,"lng":18.6520955}},{"name":"Church of the Assumption of Mary in Gliwice-4.6⭐️","coordinates":{"lat":50.3001951,"lng":18.6493685}},{"name":"Kościół rzymskokatolicki pw. św. Antoniego w Gliwicach-4.4⭐️","coordinates":{"lat":50.28632479999999,"lng":18.6435781}},{"name":"Gliwice Puszkina-⭐️","coordinates":{"lat":50.29392799999999,"lng":18.64647}},{"name":"Gliwice Puszkina-⭐️","coordinates":{"lat":50.2939129,"lng":18.6467251}},{"name":"Gliwice Puszkina-5⭐️","coordinates":{"lat":50.293897,"lng":18.64698}},{"name":"Gliwice Sowińskiego-4⭐️","coordinates":{"lat":50.29319099999999,"lng":18.64272099999999}},{"name":"Gliwice Sowińskiego-⭐️","coordinates":{"lat":50.29291480000001,"lng":18.6424268}}]}
