{"name":"Słoneczne tarasy","centerCoordinates":{"lat":50.2752472,"lng":19.019424},"locations":[{"name":"Mieszkanie","coordinates":{"lat":50.2752472,"lng":19.019424}},{"name":"Lidl-4.3⭐️","coordinates":{"lat":50.27642859999999,"lng":19.018226}},{"name":"Aldi-4.4⭐️","coordinates":{"lat":50.2744156,"lng":19.0013751}},{"name":"ALDI-4.1⭐️","coordinates":{"lat":50.26214839999999,"lng":19.0189567}},{"name":"Biedronka-3.8⭐️","coordinates":{"lat":50.28385219999999,"lng":19.0174791}},{"name":"Simply Market Katowice-4⭐️","coordinates":{"lat":50.2789228,"lng":19.0125347}},{"name":"Park-4.7⭐️","coordinates":{"lat":50.2557431,"lng":19.0146782}},{"name":"Park Wełnowiecki w Katowicach-4.5⭐️","coordinates":{"lat":50.2787599,"lng":19.0282729}},{"name":"Park Powstańców Śląskich w Katowicach-4.4⭐️","coordinates":{"lat":50.26308520000001,"lng":19.0246742}},{"name":"Calypso Fitness Katowice Korfantego-4.4⭐️","coordinates":{"lat":50.2791779,"lng":19.0204544}},{"name":"System595-4.9⭐️","coordinates":{"lat":50.2714481,"lng":19.0243377}},{"name":"Studio Ścieżka Jogi-5⭐️","coordinates":{"lat":50.27034800000001,"lng":19.0210969}},{"name":"Kościół NMP Wspomożenia Wiernych w Katowicach-4.3⭐️","coordinates":{"lat":50.27839509999999,"lng":19.021281}},{"name":"Misjonarze Oblaci Maryji Niepokalanej-4.6⭐️","coordinates":{"lat":50.27157589999999,"lng":19.0214703}},{"name":"Parafia św. Józefa Robotnika w Katowicach-4.4⭐️","coordinates":{"lat":50.28061169999999,"lng":19.0135132}},{"name":"Koszutka Iłłakowiczówny-⭐️","coordinates":{"lat":50.274904,"lng":19.02212099999999}},{"name":"Koszutka Iłłakowiczówny-2⭐️","coordinates":{"lat":50.27471499999999,"lng":19.022199}},{"name":"Józefowiec Cmentarz-⭐️","coordinates":{"lat":50.276197,"lng":19.016122}},{"name":"Józefowiec Cmentarz-⭐️","coordinates":{"lat":50.27629959999999,"lng":19.015832}},{"name":"Józefowiec Cmentarz-⭐️","coordinates":{"lat":50.276403,"lng":19.015542}}]}
