{"name":"Nova Mikołowska","centerCoordinates":{"lat":50.2539658,"lng":19.0081518},"locations":[{"name":"Mieszkanie","coordinates":{"lat":50.2539658,"lng":19.0081518}},{"name":"Netto-4⭐️","coordinates":{"lat":50.263726,"lng":19.0045847}},{"name":"Stokrotka-3.9⭐️","coordinates":{"lat":50.2587874,"lng":19.01578}},{"name":"Biedronka-4.1⭐️","coordinates":{"lat":50.26288539999999,"lng":19.0108347}},{"name":"ALDI-4.1⭐️","coordinates":{"lat":50.26214839999999,"lng":19.0189567}},{"name":"Moje Auchan-3.7⭐️","coordinates":{"lat":50.2530436,"lng":19.0194091}},{"name":"Park-4.7⭐️","coordinates":{"lat":50.2557431,"lng":19.0146782}},{"name":"Kosciuszko Park-4.6⭐️","coordinates":{"lat":50.2459046,"lng":19.0046438}},{"name":"Park za Lotniskiem. Rolkostrada.-4.8⭐️","coordinates":{"lat":50.2338658,"lng":19.0267264}},{"name":"Siłownia plenerowa-4⭐️","coordinates":{"lat":50.25229110000001,"lng":19.0086621}},{"name":"Aeroclass Studium Form Gimnastycznych-4.5⭐️","coordinates":{"lat":50.2504939,"lng":19.0034133}},{"name":"Olimp-4.4⭐️","coordinates":{"lat":50.25007100000001,"lng":19.0036094}},{"name":"Kościół Apostołów Piotra i Pawła-4.6⭐️","coordinates":{"lat":50.25322810000001,"lng":19.0101694}},{"name":"Jezus Żyje-⭐️","coordinates":{"lat":50.2533454,"lng":19.0109477}},{"name":"Kaplica szpitalna-⭐️","coordinates":{"lat":50.2549784,"lng":19.0046076}},{"name":"Katowice Mikołowska-3.9⭐️","coordinates":{"lat":50.25262000000001,"lng":19.00869}},{"name":"Katowice Mikołowska-4.3⭐️","coordinates":{"lat":50.25466000000001,"lng":19.01048}},{"name":"Katowice AWF-3.5⭐️","coordinates":{"lat":50.251431,"lng":19.00485}},{"name":"Katowice AWF-4.6⭐️","coordinates":{"lat":50.251047,"lng":19.004089}},{"name":"Katowice Kopernika Dworzec-4.1⭐️","coordinates":{"lat":50.255005,"lng":19.014463}}]}
