{"name":"Apartamenty przy parku","centerCoordinates":{"lat":50.29485469999999,"lng":18.9588347},"locations":[{"name":"Mieszkanie","coordinates":{"lat":50.29485469999999,"lng":18.9588347}},{"name":"Carrefour-4.2⭐️","coordinates":{"lat":50.29092010000001,"lng":18.9664293}},{"name":"Kaufland Chorzow-Srodmiescie-4.2⭐️","coordinates":{"lat":50.2992307,"lng":18.9587914}},{"name":"ALDI-4.2⭐️","coordinates":{"lat":50.2844914,"lng":18.9713586}},{"name":"Lidl-4.3⭐️","coordinates":{"lat":50.2896993,"lng":18.95874569999999}},{"name":"Lidl-4.3⭐️","coordinates":{"lat":50.2989535,"lng":18.9689398}},{"name":"Park Łagiewnicki-4⭐️","coordinates":{"lat":50.3187157,"lng":18.9276938}},{"name":"Park Bytkowski w Siemianowicach Śląskich-4.5⭐️","coordinates":{"lat":50.3048793,"lng":18.9997941}},{"name":"City Park Skalka-4.5⭐️","coordinates":{"lat":50.2988606,"lng":18.9256536}},{"name":"Saturn Fitness Chorzów-4.6⭐️","coordinates":{"lat":50.29109810000001,"lng":18.9596698}},{"name":"Ścianka wspinaczkowa CSC-4.7⭐️","coordinates":{"lat":50.2983254,"lng":18.9623703}},{"name":"Hotel Diament Bella Notte Katowice Chorzów-4.3⭐️","coordinates":{"lat":50.29114680000001,"lng":18.9638031}},{"name":"Parafia Ewangelicka w Chorzowie-4.7⭐️","coordinates":{"lat":50.2955742,"lng":18.9544384}},{"name":"Brauner Usługi Pogrzebowe i Kremacyjne Chorzów-5⭐️","coordinates":{"lat":50.2949825,"lng":18.9539204}},{"name":"Kippah.Pl-⭐️","coordinates":{"lat":50.2935433,"lng":18.952905}},{"name":"Chorzów Teatr Rozrywki-4⭐️","coordinates":{"lat":50.294225,"lng":18.957438}},{"name":"Chorzów Chopina-⭐️","coordinates":{"lat":50.2945863,"lng":18.9567912}},{"name":"Chorzów Teatr Rozrywki-⭐️","coordinates":{"lat":50.29353,"lng":18.9575}},{"name":"Chorzów Teatr Rozrywki-5⭐️","coordinates":{"lat":50.29548699999999,"lng":18.955873}},{"name":"Estakada-4⭐️","coordinates":{"lat":50.296526,"lng":18.9550356}}]}
