{"name":"Ogrody Andersa","centerCoordinates":{"lat":50.303864,"lng":18.6373119},"locations":[{"name":"Mieszkanie","coordinates":{"lat":50.303864,"lng":18.6373119}},{"name":"Carrefour-4.1⭐️","coordinates":{"lat":50.3073431,"lng":18.6452659}},{"name":"Lidl-4.3⭐️","coordinates":{"lat":50.3033697,"lng":18.6354112}},{"name":"Biedronka-⭐️","coordinates":{"lat":50.2996799,"lng":18.6448459}},{"name":"Biedronka-4.1⭐️","coordinates":{"lat":50.3003191,"lng":18.6486884}},{"name":"Biedronka-4.2⭐️","coordinates":{"lat":50.3042888,"lng":18.6350551}},{"name":"Park przy Ogródkach-4⭐️","coordinates":{"lat":50.3012445,"lng":18.6627848}},{"name":"Park na Słowackiego-4.4⭐️","coordinates":{"lat":50.2888616,"lng":18.643935}},{"name":"Plac Grunwaldzki-4.6⭐️","coordinates":{"lat":50.29098949999999,"lng":18.65165}},{"name":"CrossFit Gliwice-4.8⭐️","coordinates":{"lat":50.30249370000001,"lng":18.6460229}},{"name":"Pracownia Dobrej Formy Magdalena Żelezik-5⭐️","coordinates":{"lat":50.3005386,"lng":18.6455417}},{"name":"Szkoła Jogi- Balasana Joga-5⭐️","coordinates":{"lat":50.2996597,"lng":18.6449964}},{"name":"Church of the Assumption of Mary in Gliwice-4.6⭐️","coordinates":{"lat":50.3001951,"lng":18.6493685}},{"name":"Kaplica-3⭐️","coordinates":{"lat":50.3092175,"lng":18.6235525}},{"name":"Kapliczka prywatna-⭐️","coordinates":{"lat":50.3109366,"lng":18.6242099}},{"name":"Gliwice Cmentarz Centralny-4.7⭐️","coordinates":{"lat":50.304342,"lng":18.635982}},{"name":"Gliwice Cmentarz Centralny-⭐️","coordinates":{"lat":50.30426139999999,"lng":18.6346391}},{"name":"Gliwice Cmentarz Centralny-4⭐️","coordinates":{"lat":50.30407100000001,"lng":18.633488}},{"name":"Osiedle Wojska Polskiego Ordona-⭐️","coordinates":{"lat":50.30142900000001,"lng":18.637956}},{"name":"Gliwice Cmentarz Centralny-⭐️","coordinates":{"lat":50.304835,"lng":18.633708}}]}
